[
  {
    "id": "alliston",
    "name": "Alliston",
    "regionShortName": "Alliston",
    "serviceTimeDescription":"Every Sunday at 10:30am. We will not meet on Dec 25.",
    "region": "Distance",
    "pastorEmail": "ruth.wright@themeetinghouse.com",
    "location": {
      "longitude": -79.870798,
      "latitude": 44.149035,
      "address": "Gibson Centre, 63 Tupper Street West"
    },
    "serviceTimes": ["10:30am"],
    "youth": {
      "age": "Youth | Grades 6 – 12",
      "location": {
        "name": "Immanuel CRC Church",
        "address": "2626 Mayfield Road, Caledon"
      },
      "time": "Wednesdays | 7:00 – 9:00 pm",
      "facebook": "https://www.facebook.com/bramptonyouth.tmh/",
      "instagram": "https://www.instagram.com/bramptonyouth.tmh/",
      "mainContact": {
        "name": "Amie Medeiros – Youth Coordinator",
        "email": "amie.medeiros@themeetinghouse.com"
      }
    }
  },
  {
    "id": "sandbanks",
    "name": "Sandbanks",
    "regionShortName": "Sandbanks",
    "serviceTimeDescription":"Every Sunday at 10am",
    "region": "Distance",
    "pastorEmail": "steve.kerr@themeetinghouse.com",
    "location": {
      "longitude": -77.2674762,
      "latitude": 43.9188665,
      "address": "1901 County Rd 12, Prince Edward County"
    },
    "serviceTimes": ["10:00am"]
  },
  {
    "id": "brampton",
    "name": "Brampton",
    "regionShortName": "Brampton",
    "serviceTimeDescription":"Dec 23 at Alderlea. All other Sundays at 2700 Bristol Circle, Oakville.",
    "region": "Peel",
    "pastorEmail": "Christine.Gerber@themeetinghouse.com",
    "location": {
      "longitude": -79.7607954,
      "latitude": 43.682767,
      "address": "Alderlea, 40 Elizabeth Street South"
    },
    "serviceTimes": ["10:00am"]
  },
  {
    "id": "burlington",
    "name": "Burlington",
    "regionShortName": "Burlington",
    "serviceTimeDescription":"Every Sunday at 10am",
    "region": "Peel",
    "pastorEmail": "Jordan.Taylor@themeetinghouse.com",
    "location": {
      "longitude": -79.8302872,
      "latitude": 43.3439882,
      "address": "1240 Advance Rd"
    },
    "serviceTimes": ["11:00am"]
  },
  {
    "id": "hamilton",
    "name": "Hamilton",
    "regionShortName": "Hamilton",
    "serviceTimeDescription":"Every Sunday at 10am.",
    "region": "Hamilton",
    "pastorEmail": "Jimmy.Rushton@themeetinghouse.com",
    "location": {
      "longitude": -79.8703275,
      "latitude": 43.2621493,
      "address": "The Gasworks, 141 Park St N."
    },
    "serviceTimes": ["10:00am"]
  },
  {
    "id": "toronto-downtown",
    "name": "Toronto - Downtown",
    "regionShortName": "Downtown",
    "region": "Toronto",
    "serviceTimeDescription": "Every Sunday at 10am",
    "pastorEmail": "Lisa.Goetze@themeetinghouse.com",
    "location": {
      "longitude": -79.39134448465478,
      "latitude": 43.65219133132586,
      "address": "St. George by the Grange Anglican Church, 30 Stephanie St"
    },
    "serviceTimes": ["10:00am"]
  },
  {
    "id": "toronto-east",
    "name": "Toronto - East",
    "regionShortName": "East",
    "region": "Toronto",
    "pastorEmail": "Jennifer.McWilliams@themeetinghouse.com",
    "serviceTimeDescription": "Every Sunday at 10am. We will not meet on Dec 25.",
    "location": {
      "longitude": -79.3166538,
      "latitude": 43.6664844,
      "address": "The Beach Cinemas, 1651 Queen Street East"
    },
    "serviceTimes": ["10:00am"]
  },
  {
    "id": "toronto-high-park",
    "name": "Toronto - High Park",
    "regionShortName": "High Park",
    "region": "Toronto",
    "serviceTimeDescription": "Every Sunday at 10am",
    "pastorEmail": "Rob.Schellenberg@themeetinghouse.com",
    "location": {
      "longitude": -79.4921797,
      "latitude": 43.6584924,
      "address": "Humbercrest Church, 16 Baby Point Road"
    },
    "serviceTimes": ["10:00am"]
  },
  {
    "id": "london",
    "name": "London",
    "regionShortName": "London",
    "serviceTimeDescription":"Every Sunday at 9:30am",
    "region": "Distance",
    "pastorEmail": "amie.latta@themeetinghouse.com",
    "location": {
      "longitude": -81.29423741528805,
      "latitude": 42.999934444016944,
      "address": "Church of the Transfiguration, 33 Bromleigh Ave"
    },
    "serviceTimes": ["9:30am"]
  },
  {
    "id": "newmarket",
    "name": "Newmarket",
    "regionShortName": "Newmarket",
    "serviceTimeDescription":"Every Sunday at 10am",
    "region": "Distance",
    "pastorEmail": "chris.chase@themeetinghouse.com",
    "location": {
      "longitude": -79.555998,
      "latitude": 43.79428,
      "address": "SilverCity Newmarket, 18195 Yonge Street"
    },
    "serviceTimes": ["10:00am"]
  },
  {
    "id": "oakville",
    "name": "Oakville",
    "regionShortName": "Oakville",
    "serviceTimeDescription":"Every Sunday at 9:30am",
    "region": "Peel",
    "pastorEmail": "oakville.pastor@themeetinghouse.com",
    "location": {
      "longitude": -79.685926,
      "latitude": 43.511459,
      "address": "2700 Bristol Circle"
    },
    "serviceTimes": ["9:30am"],
    "youth": {
      "age": "Youth | Grades 6 – 12",
      "location": {
        "name": "The Meeting House Production Site",
        "googleMapLink": "https://www.google.com/maps/place/2700+Bristol+Cir,+Oakville,+ON+L6H+6E1/@43.5111777,-79.687309,17z/data=!3m1!4b1!4m5!3m4!1s0x882b43061295ed3d:0x6c6d4c16d7ec8f0e!8m2!3d43.5111738!4d-79.685115"
      },
      "time": "Wednesdays | 7:00 – 9:00 pm",
      "facebook": "https://www.facebook.com/oakvilleyouth.tmh/",
      "instagram": "https://www.instagram.com/oakvilleyouth.tmh/",
      "mainContact": {
        "name": "Brad Eager – Youth Pastor",
        "email": "brad.eager@themeetinghouse.com",
        "phone": "905.464.0307"
      }
    }
  },
  {
    "id": "ottawa",
    "name": "Ottawa",
    "regionShortName": "Ottawa",
    "serviceTimeDescription":"Every Sunday at 3pm. Not meeting Dec 25 or Jan 1.",
    "region": "Distance",
    "pastorEmail": "Eric.Versluis@themeetinghouse.com",
    "location": {
      "longitude": -75.6901723,
      "latitude": 45.3591095,
      "address": "Riverside United Church, 3191 Riverside Drive"
    },
    "serviceTimes": ["3:00pm"]
  },

  {
    "id": "parry-sound",
    "name": "Parry Sound",
    "regionShortName": "Parry Sound",
    "serviceTimeDescription":"Every Sunday at 10am. We will not meet on Dec 25.",
    "region": "Distance",
    "pastorEmail": "parrysound@themeetinghouse.com",
    "location": {
      "longitude": -80.036396,
      "latitude": 45.35407,
      "address": "The Sound Hub, 86 Gibson St."
    },
    "serviceTimes": ["10:00am"]
  },
  {
    "id": "richmond-hill",
    "name": "Richmond Hill",
    "regionShortName": "Richmond Hill",
    "serviceTimeDescription":"Every Sunday at 2pm",
    "region": "Distance",
    "pastorEmail": "chris.pullenayegem@themeetinghouse.com",
    "location": {
      "longitude": -79.43721571533477,
      "latitude": 43.88108937451291,
      "address": "Community Church of Richmond Hill, 45 Crosby Ave"
    },
    "serviceTimes": ["2:00pm"]
  },
  {
    "id": "waterloo",
    "name": "Waterloo",
    "regionShortName": "Waterloo",
    "serviceTimeDescription":"Every Sunday at 10am",
    "region": "Waterloo",
    "pastorEmail": "madeleine.neufeld@themeetinghouse.com",
    "location": {
      "longitude":  -80.4641284593693,
      "latitude": 43.4356144678023,
      "address": "Rockway Mennonite Collegiate, 110 Door Rd, Kitchener"
    },
    "serviceTimes": ["10:00am"]
  },
  {
    "id": "global",
    "name": "Online Community",
    "pastorEmail": "Mike.Slack@themeetinghouse.com",
    "location": {
      "longitude": 0.1,
      "latitude": 0.1,
      "address": " "
    },
    "serviceTimes": ["10:00am"]
  }
]
